sensor_index,last_seen,name,location_type,latitude,longitude,last_seen_utc,age_days,active_7d,active_30d,province
266614,1779861860,Pit 8 PRM2(new2025),0,49.235546,-105.29647,2026-05-27 06:04:20+00:00,0.0006536108564814814,True,True,SK
272918,1779861808,Shaunavon Public School,0,49.64833,-108.412155,2026-05-27 06:03:28+00:00,0.0012554627083333333,True,True,SK
273087,1779861859,Frontier School,0,49.20535,-108.56434,2026-05-27 06:04:19+00:00,0.0006651849305555556,True,True,SK
273081,1779861832,Gull Lake School,0,50.09238,-108.478874,2026-05-27 06:03:52+00:00,0.0009776849305555555,True,True,SK
13089,1779861789,East Regina,0,50.44632,-104.40226,2026-05-27 06:03:09+00:00,0.0014753701157407407,True,True,SK
278055,1779861840,Aberdeen,0,52.32907,-106.28809,2026-05-27 06:04:00+00:00,0.0008850923379629629,True,True,SK
279087,1779861780,Avonlea,0,50.01725,-105.05532,2026-05-27 06:03:00+00:00,0.0015795367824074074,True,True,SK
280276,1779861777,"Olive Grove, Regina SK",0,50.425274,-104.53042,2026-05-27 06:02:57+00:00,0.0016142590046296296,True,True,SK
280344,1779861779,Holy Trinity Catholic School Division Board Office,0,50.3942,-105.49968,2026-05-27 06:02:59+00:00,0.0015911108564814816,True,True,SK
284246,1779861871,#4 Exploration,0,54.640182,-102.830734,2026-05-27 06:04:31+00:00,0.0005262960416666666,True,True,SK
284296,1779861835,#2_Comms Tower Sea Can,0,54.62586,-102.815796,2026-05-27 06:03:55+00:00,0.0009429627083333333,True,True,SK
287588,1779861889,AQSU-Parks Canada Ops,0,49.24228,-107.7334,2026-05-27 06:04:49+00:00,0.0003179627083333333,True,True,SK
288558,1779861785,Whitecap Dakota Nation,0,51.876564,-106.71199,2026-05-27 06:03:05+00:00,0.0015216664120370372,True,True,SK
288554,1779861887,Kinistin Saulteaux Nation,0,52.609673,-104.21893,2026-05-27 06:04:47+00:00,0.0003411108564814815,True,True,SK
291698,1779861808,Muskoday First Nation,0,53.089066,-105.49045,2026-05-27 06:03:28+00:00,0.0012554627083333333,True,True,SK
31411,1779861863,SPSA Radio Technical Services,0,53.19702,-105.7409,2026-05-27 06:04:23+00:00,0.0006188886342592592,True,True,SK
35205,1779861784,Indian Head,0,50.530582,-103.67302,2026-05-27 06:03:04+00:00,0.0015332404861111112,True,True,SK
37889,1779861814,AQSU-3317,0,51.49611,-107.0625,2026-05-27 06:03:34+00:00,0.0011860182638888889,True,True,SK
39067,1779861879,Flying Dust First Nation - MLTC,0,54.135418,-108.40431,2026-05-27 06:04:39+00:00,0.00043370344907407406,True,True,SK
312345,1779808910,Balgonie Elementary,0,50.48896,-104.26845,2026-05-26 15:21:50+00:00,0.6135008330787037,True,True,SK
80139,1779861866,La Plonge - ERFN - MLTC Monitor,0,55.16035,-107.582375,2026-05-27 06:04:26+00:00,0.0005841664120370371,True,True,SK
80157,1779861811,Pelican Narrows,0,55.187683,-102.94493,2026-05-27 06:03:31+00:00,0.001220740486111111,True,True,SK
80181,1779861788,Southend Health Centre Suite ^,0,56.323864,-103.24024,2026-05-27 06:03:08+00:00,0.001486944189814815,True,True,SK
83949,1779861843,Martensville,0,52.28792,-106.655334,2026-05-27 06:04:03+00:00,0.0008503701157407407,True,True,SK
83977,1779861782,Saskatoon East,0,52.104385,-106.615204,2026-05-27 06:03:02+00:00,0.0015563886342592594,True,True,SK
94193,1779331944,Pelican Narrow,0,55.178722,-102.92746,2026-05-21 02:52:24+00:00,6.133940647893518,True,True,SK
95365,1779861811,Grandmothers Bay,0,55.625896,-104.71085,2026-05-27 06:03:31+00:00,0.001220740486111111,True,True,SK
95507,1779861812,La Ronge,0,55.099724,-105.29466,2026-05-27 06:03:32+00:00,0.0012091664120370369,True,True,SK
106306,1779861819,Hall Lake,0,55.11413,-105.91855,2026-05-27 06:03:39+00:00,0.0011281478935185184,True,True,SK
132901,1779861840,Weyburn Arenas,0,49.6659,-103.86062,2026-05-27 06:04:00+00:00,0.0008850923379629629,True,True,SK
134938,1779861856,NWR Weather,0,50.501785,-104.660446,2026-05-27 06:04:16+00:00,0.0006999071527777778,True,True,SK
136784,1779861825,Johnson Shoyama Graduate School of Public Policy — University of Regina,0,50.440098,-104.611,2026-05-27 06:03:45+00:00,0.001058703449074074,True,True,SK
137258,1779861785,AQSU-E4DB,0,49.669876,-103.17209,2026-05-27 06:03:05+00:00,0.0015216664120370372,True,True,SK
137774,1779861803,Poplar,0,52.118786,-106.671135,2026-05-27 06:03:23+00:00,0.0013133330787037036,True,True,SK
143522,1779275747,Saskatoon French School,0,52.1087,-106.692894,2026-05-20 11:15:47+00:00,6.784368888634259,True,True,SK
143688,1779861878,St. Joseph High School,0,52.14765,-106.583755,2026-05-27 06:04:38+00:00,0.0004452775231481482,True,True,SK
145074,1779861854,Dalmeny Downtown,0,52.340893,-106.773705,2026-05-27 06:04:14+00:00,0.0007230553009259259,True,True,SK
149618,1779861839,NWR Weather 2,0,50.788033,-104.97285,2026-05-27 06:03:59+00:00,0.0008966664120370369,True,True,SK
151158,1779861786,Goodwater Field Office,0,49.469376,-103.70854,2026-05-27 06:03:06+00:00,0.001510092337962963,True,True,SK
151170,1779861871,CARLYE sk,0,49.638657,-102.27627,2026-05-27 06:04:31+00:00,0.0005262960416666666,True,True,SK
151386,1779861869,Weyburn,0,49.658752,-103.85062,2026-05-27 06:04:29+00:00,0.0005494441898148149,True,True,SK
152072,1779861779,Leisure Centre,0,49.669205,-103.84738,2026-05-27 06:02:59+00:00,0.0015911108564814816,True,True,SK
152154,1779861777,Mosaic Stadium,0,50.451645,-104.63257,2026-05-27 06:02:57+00:00,0.0016142590046296296,True,True,SK
157597,1779861835,Rook I Camp,0,57.652084,-109.27013,2026-05-27 06:03:55+00:00,0.0009429627083333333,True,True,SK
166031,1779861816,Saskatoon Eastview,0,52.090675,-106.61149,2026-05-27 06:03:36+00:00,0.0011628701157407407,True,True,SK
175687,1779861799,AQSU-41A9,0,52.739178,-103.98449,2026-05-27 06:03:19+00:00,0.001359629375,True,True,SK
192963,1779861777,Cypress Hills Prov Park SPSA,0,49.663673,-109.53532,2026-05-27 06:02:57+00:00,0.0016142590046296296,True,True,SK
193091,1779861868,Rams 1,0,50.414425,-104.586845,2026-05-27 06:04:28+00:00,0.0005610182638888889,True,True,SK
193097,1779861783,Mosaic Stadium Sideline,0,50.4512,-104.6333,2026-05-27 06:03:03+00:00,0.0015448145601851852,True,True,SK
193110,1779861855,Mosaic Stadium Upper Level,0,50.44997,-104.63419,2026-05-27 06:04:15+00:00,0.0007114812268518519,True,True,SK
195477,1779861787,Colonsay,0,51.976357,-105.87072,2026-05-27 06:03:07+00:00,0.001498518263888889,True,True,SK
195485,1779861792,Blaine Lake,0,52.831364,-106.87386,2026-05-27 06:03:12+00:00,0.0014406478935185185,True,True,SK
195505,1779861810,Delisle,0,51.92633,-107.13111,2026-05-27 06:03:30+00:00,0.0012323145601851851,True,True,SK
195511,1779861844,Hanley,0,51.633156,-106.44209,2026-05-27 06:04:04+00:00,0.0008387960416666666,True,True,SK
195555,1779861878,Rosthern,0,52.666874,-106.34828,2026-05-27 06:04:38+00:00,0.0004452775231481482,True,True,SK
195659,1779861869,Foley Base PRM1,0,49.23043,-105.47477,2026-05-27 06:04:29+00:00,0.0005494441898148149,True,True,SK
196017,1779861784,Wildwood,0,52.107727,-106.593544,2026-05-27 06:03:04+00:00,0.0015332404861111112,True,True,SK
196429,1779861792,All Saints Catholic School,0,50.3135,-107.78,2026-05-27 06:03:12+00:00,0.0014406478935185185,True,True,SK
196479,1779861809,Christ The King School,0,49.65119,-108.40426,2026-05-27 06:03:29+00:00,0.0012438886342592591,True,True,SK
209603,1779861783,FHQTC LRES Urban Office,0,50.471775,-104.58396,2026-05-27 06:03:03+00:00,0.0015448145601851852,True,True,SK
209845,1779861866,AQSU-Muskeg Lake,0,53.003407,-106.87685,2026-05-27 06:04:26+00:00,0.0005841664120370371,True,True,SK
209863,1779861871,AQSU-CAPMoN_PHL,0,55.51217,-106.724525,2026-05-27 06:04:31+00:00,0.0005262960416666666,True,True,SK
211611,1779861802,FHQTC LRES Treaty Four Territory Air Quality Monitor,0,50.756958,-103.78721,2026-05-27 06:03:22+00:00,0.0013249071527777778,True,True,SK
214441,1779544009,AQSU-Mistawasis,0,53.174923,-106.80666,2026-05-23 13:46:49+00:00,3.679484629375,True,True,SK
218169,1779861839,Mosaic Stadium Sideline (2),0,50.45109,-104.63352,2026-05-27 06:03:59+00:00,0.0008966664120370369,True,True,SK
220665,1779861835,SAS / Saskatoon Kinsmen Henk Ruys Soccer Centre,0,52.1678,-106.631836,2026-05-27 06:03:55+00:00,0.0009429627083333333,True,True,SK
223245,1779861827,All Nations Healing Hospital/FHQTC Health Services,0,50.761063,-103.78715,2026-05-27 06:03:47+00:00,0.0010355553009259257,True,True,SK
224705,1779861855,St. Henry's Sr School,0,50.93659,-102.79673,2026-05-27 06:04:15+00:00,0.0007114812268518519,True,True,SK
225117,1779861876,Century Field YRHS,0,51.215965,-102.478065,2026-05-27 06:04:36+00:00,0.0004684256712962963,True,True,SK
226573,1779861885,Mankota Public School,0,49.41989,-107.0674,2026-05-27 06:04:45+00:00,0.0003642590046296296,True,True,SK
226635,1779861777,Central Butte School,0,50.796543,-106.504524,2026-05-27 06:02:57+00:00,0.0016142590046296296,True,True,SK
226639,1779861802,Assiniboia Composite High School,0,49.62498,-105.99798,2026-05-27 06:03:22+00:00,0.0013249071527777778,True,True,SK
227149,1779861874,École Gravelbourg School,0,49.872833,-106.56045,2026-05-27 06:04:34+00:00,0.0004915738194444444,True,True,SK
227167,1779861778,Waskesiu Lake,0,53.92815,-106.07821,2026-05-27 06:02:58+00:00,0.0016026849305555556,True,True,SK
227165,1779464132,Craik School,0,51.044815,-105.82357,2026-05-22 15:35:32+00:00,4.603986944189815,True,True,SK
227173,1779861838,Prairie South School Division Office,0,50.40043,-105.55701,2026-05-27 06:03:58+00:00,0.000908240486111111,True,True,SK
227183,1779861863,Rouleau School,0,50.19128,-104.90163,2026-05-27 06:04:23+00:00,0.0006188886342592592,True,True,SK
229353,1779861845,Borden,0,52.403618,-107.23633,2026-05-27 06:04:05+00:00,0.0008272219675925925,True,True,SK
229921,1779861783,Cudworth,0,52.48632,-105.73341,2026-05-27 06:03:03+00:00,0.0015448145601851852,True,True,SK
231289,1779861891,AQSU-One Arrow,0,52.740547,-106.029366,2026-05-27 06:04:51+00:00,0.0002948145601851852,True,True,SK
240955,1779861823,Cote First Nation,0,51.62307,-101.90229,2026-05-27 06:03:43+00:00,0.0010818515972222222,True,True,SK
241481,1779861871,The Key First Nation,0,51.78237,-102.12954,2026-05-27 06:04:31+00:00,0.0005262960416666666,True,True,SK
241487,1779861783,Kahkewistahaw First Nation,0,50.50322,-102.53438,2026-05-27 06:03:03+00:00,0.0015448145601851852,True,True,SK
246833,1779861792,Brightsand Lake,0,53.59739,-108.909195,2026-05-27 06:03:12+00:00,0.0014406478935185185,True,True,SK
251803,1779861816,Saskatchewan Polytechnic Moose Jaw Campus,0,50.40406,-105.551186,2026-05-27 06:03:36+00:00,0.0011628701157407407,True,True,SK
252811,1779861874,AQSU-Yellow Quill,0,52.306683,-103.62862,2026-05-27 06:04:34+00:00,0.0004915738194444444,True,True,SK
